- name: BSchool
  latitude: !secret boyslat
  longitude: !secret boyslon
  radius: 300
  icon: mdi:school

- name: SSchool
  latitude: !secret scarlat
  longitude: !secret scarlon
  radius: 300
  icon: mdi:school

- name: Home
  latitude: !secret homelat
  longitude: !secret homelon
  radius: 300
  icon: mdi:home

- name: Dina
  latitude: 26.482284
  longitude: -81.781710
  radius: 300
  icon: mdi:routes
  
- name: Joan
  latitude: 26.4782007
  longitude: -81.784120
  radius: 300
  icon: mdi:routes

- name: Connie
  latitude: 26.580299
  longitude: -81.828848
  radius: 300
  icon: mdi:routes

- name: Connieapt
  latitude: 26.274564
  longitude: -81.826200
  radius: 300
  icon: mdi:routes

- name: Janice
  latitude: 26.475217
  longitude: -81.788060
  radius: 300
  icon: mdi:routes

- name: Leona
  latitude: 26.455166
  longitude: -81.7788828
  radius: 300
  icon: mdi:routes

- name: Lisa
  latitude: 26.448158
  longitude: -81.770825
  radius: 300
  icon: mdi:routes

- name: Diane
  latitude: 26.5435652
  longitude: -81.8242432
  radius: 300
  icon: mdi:routes

- name: Kelly
  latitude: 26.590912
  longitude: -81.896188
  radius: 300
  icon: mdi:routes

- name: Alison
  latitude: 26.573526
  longitude: -81.902917
  radius: 300
  icon: mdi:routes
  
- name: Evelin
  latitude: 26.518865
  longitude: -81.913790
  radius: 300
  icon: mdi:routes