- name: BSchool
  latitude: !secret boyslat
  longitude: !secret boyslon
  radius: 150
  icon: mdi:school

- name: SSchool
  latitude: !secret scarlat
  longitude: !secret scarlon
  radius: 150
  icon: mdi:school

- name: Home
  latitude: !secret homelat
  longitude: !secret homelon
  radius: 80
  icon: mdi:home

- name: Dina
  latitude: 26.482284
  longitude: -81.781710
  radius: 50
  icon: mdi:routes
  
- name: Joan
  latitude: 26.478807
  longitude: -81.784120
  radius: 100
  icon: mdi:routes

- name: Connie
  latitude: 26.580321
  longitude: -81.828854
  radius: 80
  icon: mdi:routes

- name: Connieapt
  latitude: 26.274564
  longitude: -81.826100
  radius: 80
  icon: mdi:routes

- name: Janice
  latitude: 26.4750705
  longitude: -81.788648
  radius: 100
  icon: mdi:routes

- name: Leona
  latitude: 26.455166
  longitude: -81.7788828
  radius: 50
  icon: mdi:routes

- name: Lisa
  latitude: 26.448158
  longitude: -81.770825
  radius: 200
  icon: mdi:routes

- name: Diane
  latitude: 26.543536
  longitude: -81.824702
  radius: 50
  icon: mdi:routes

- name: Kelly
  latitude: 26.590912
  longitude: -81.896188
  radius: 200
  icon: mdi:routes

- name: Alison
  latitude: 26.573526
  longitude: -81.902917
  radius: 200
  icon: mdi:routes
  
- name: Evelin
  latitude: 26.518865
  longitude: -81.913790
  radius: 200
  icon: mdi:routes